{
  "roads": [
    {
      "id": "0532J51F048004321",
      "location": "120.383,36.066",
      "direction": "北",
      "name": "香港中路",
      "distance": "28.5433"
    },
    {
      "id": "0532J51F048004603356",
      "location": "120.382,36.0654",
      "direction": "东北",
      "name": "南通路",
      "distance": "154.786"
    },
    {
      "id": "0532J51F048004261",
      "location": "120.384,36.0672",
      "direction": "西南",
      "name": "新浦路",
      "distance": "157.96"
    }
  ],
  "roadinters": [
    {
      "second_name": "香港中路",
      "first_id": "0532J51F04800423416",
      "second_id": "0532J51F048004321",
      "location": "120.385001,36.066195",
      "distance": "180.815",
      "first_name": "新浦支路",
      "direction": "西"
    }
  ],
  "formatted_address": "山东省青岛市市南区香港中路街道香港中路青岛市人民政府",
  "addressComponent": {
    "city": "青岛市",
    "province": "山东省",
    "adcode": "370202",
    "district": "市南区",
    "towncode": "370202017000",
    "streetNumber": {
      "number": "11号",
      "location": "120.382245,36.066072",
      "direction": "西",
      "distance": "69.2262",
      "street": "香港中路"
    },
    "country": "中国",
    "township": "香港中路街道",
    "businessAreas": [
      { "location": "120.368217,36.061836", "name": "湛山", "id": "370202" },
      { "location": "120.423634,36.087438", "name": "浮山", "id": "370212" }
    ],
    "building": { "name": [], "type": [] },
    "neighborhood": { "name": [], "type": [] },
    "citycode": "0532"
  },
  "aois": [
    {
      "area": "57416.101293",
      "type": "130103",
      "id": "B021402985",
      "location": "120.382665,36.066938",
      "adcode": "370202",
      "name": "青岛市人民政府",
      "distance": "0"
    },
    {
      "area": "12915290.628653",
      "type": "110200",
      "id": "B0FFGYXTMC",
      "location": "120.361538,36.060303",
      "adcode": "370202",
      "name": "海滨风景区",
      "distance": "50.7341"
    }
  ],
  "pois": [
    {
      "id": "B021402985",
      "direction": "西北",
      "businessarea": "湛山",
      "address": "香港中路11号青岛市市级机关办公楼",
      "poiweight": "0.682814",
      "name": "青岛市人民政府",
      "location": "120.382665,36.066938",
      "distance": "83.9805",
      "tel": [],
      "type": "政府机构及社会团体;政府机关;地市级政府及事业单位"
    },
    {
      "id": "B02140ZI27",
      "direction": "北",
      "businessarea": "湛山",
      "address": "香港中路17号(五四广场地铁站C口步行190米)",
      "poiweight": "0.205065",
      "name": "青岛市市级机关办公楼",
      "location": "120.382629,36.067139",
      "distance": "106.153",
      "tel": [],
      "type": "商务住宅;楼宇;商务写字楼"
    },
    {
      "id": "B02140WTBF",
      "direction": "东南",
      "businessarea": "湛山",
      "address": "香港中路18号福泰广场",
      "poiweight": "0.18722",
      "name": "五四外贸广场",
      "location": "120.384445,36.065289",
      "distance": "167.502",
      "tel": [],
      "type": "购物服务;商场;普通商场"
    },
    {
      "id": "BX10022059",
      "direction": "西南",
      "businessarea": "湛山",
      "address": "2号线3号线",
      "poiweight": "0.157045",
      "name": "五四广场地铁站C口",
      "location": "120.381604,36.065076",
      "distance": "178.851",
      "tel": [],
      "type": "交通设施服务;地铁站;出入口"
    },
    {
      "id": "B02140WCOO",
      "direction": "西南",
      "businessarea": "湛山",
      "address": "香港中路10号(五四广场地铁站C口步行120米)",
      "poiweight": "0.43595",
      "name": "颐和国际B座(香港中路)",
      "location": "120.382119,36.064788",
      "distance": "178.442",
      "tel": [],
      "type": "商务住宅;楼宇;商务写字楼"
    },
    {
      "id": "B021406T3F",
      "direction": "东",
      "businessarea": "湛山",
      "address": "香港中路18号(五四广场地铁站C口步行400米)",
      "poiweight": "0.439201",
      "name": "福泰广场B座",
      "location": "120.385003,36.065509",
      "distance": "197.92",
      "tel": [],
      "type": "商务住宅;楼宇;商务写字楼"
    },
    {
      "id": "B021409QRK",
      "direction": "西北",
      "businessarea": "湛山",
      "address": "南通路2号(五四广场地铁站B2口步行270米)",
      "poiweight": "0.314589",
      "name": "青岛市委市政府信访局",
      "location": "120.381439,36.067298",
      "distance": "183.152",
      "tel": "0532-85911951",
      "type": "政府机构及社会团体;政府机关;地市级政府及事业单位"
    },
    {
      "id": "B0FFFRJYOR",
      "direction": "南",
      "businessarea": "湛山",
      "address": "香港中路12号丰合广场",
      "poiweight": "0.164001",
      "name": "欧林办公家具(五四广场店)",
      "location": "120.382949,36.065074",
      "distance": "128.613",
      "tel": "0532-86685688;18561362013",
      "type": "购物服务;家居建材市场;家具城"
    },
    {
      "id": "B0FFFFY2NC",
      "direction": "北",
      "businessarea": "湛山",
      "address": "香港中路11号(五四广场地铁站B2口步行470米)",
      "poiweight": "0.262633",
      "name": "青岛市市直机关会议中心",
      "location": "120.382519,36.067881",
      "distance": "188.424",
      "tel": "0532-85911801",
      "type": "政府机构及社会团体;政府机关;地市级政府及事业单位"
    },
    {
      "id": "B021406TNO",
      "direction": "西南",
      "businessarea": "湛山",
      "address": "香港中路10号颐和国际B座2层",
      "poiweight": "0.545427",
      "name": "豪森府邸国际酒店",
      "location": "120.382146,36.064792",
      "distance": "176.991",
      "tel": "0532-85030909;0532-85030999",
      "type": "住宿服务;宾馆酒店;四星级宾馆"
    },
    {
      "id": "B021402986",
      "direction": "北",
      "businessarea": "湛山",
      "address": "香港中路11号青岛市市级机关办公楼",
      "poiweight": "0.500695",
      "name": "中共青岛市委",
      "location": "120.382620,36.067130",
      "distance": "105.461",
      "tel": [],
      "type": "政府机构及社会团体;政府机关;地市级政府及事业单位"
    },
    {
      "id": "B0FFGUPC6O",
      "direction": "西北",
      "businessarea": "湛山",
      "address": "香港中路11号(五四广场地铁站B2口步行270米)",
      "poiweight": "0.253749",
      "name": "青岛市信访接待中心",
      "location": "120.381439,36.067298",
      "distance": "183.152",
      "tel": "0532-85911302",
      "type": "政府机构及社会团体;政府机关;地市级政府及事业单位"
    },
    {
      "id": "B021409QGP",
      "direction": "北",
      "businessarea": "湛山",
      "address": "香港中路17号青岛市市级机关办公楼F1层",
      "poiweight": "0.366186",
      "name": "青岛市科学技术局",
      "location": "120.382620,36.067130",
      "distance": "105.461",
      "tel": "0532-85911345",
      "type": "政府机构及社会团体;政府机关;地市级政府及事业单位"
    },
    {
      "id": "B0214029C0",
      "direction": "北",
      "businessarea": "湛山",
      "address": "香港中路11号青岛市市级机关办公楼",
      "poiweight": "0.251324",
      "name": "青岛市纪检委",
      "location": "120.382620,36.067130",
      "distance": "105.461",
      "tel": "0532-85911665",
      "type": "政府机构及社会团体;政府机关;地市级政府及事业单位"
    },
    {
      "id": "B0KDVHHMZ0",
      "direction": "东南",
      "businessarea": "湛山",
      "address": "香港中路18号(五四广场地铁站C口步行410米)",
      "poiweight": "0.271451",
      "name": "青岛五四广场市政府亚朵酒店",
      "location": "120.384170,36.065394",
      "distance": "141.049",
      "tel": "0532-82880009",
      "type": "住宿服务;宾馆酒店;宾馆酒店"
    },
    {
      "id": "B0FFK6SB3T",
      "direction": "南",
      "businessarea": "湛山",
      "address": "香港中路12号丰合广场",
      "poiweight": "0.166992",
      "name": "欧风日韩法德西意俄留学(市南校区)",
      "location": "120.382895,36.064750",
      "distance": "164.797",
      "tel": "18669782506",
      "type": "科教文化服务;培训机构;培训机构"
    },
    {
      "id": "B0FFHD6CXJ",
      "direction": "北",
      "businessarea": "湛山",
      "address": "香港中路11号(五四广场地铁站C口步行410米)",
      "poiweight": "0.252839",
      "name": "青岛市发展改革委员会",
      "location": "120.382682,36.067216",
      "distance": "113.098",
      "tel": "0532-85911218",
      "type": "政府机构及社会团体;政府机关;地市级政府及事业单位"
    },
    {
      "id": "B0214093U0",
      "direction": "南",
      "businessarea": "湛山",
      "address": "香港中路12号(五四广场地铁站C口步行280米)",
      "poiweight": "0.383385",
      "name": "丰合广场C区",
      "location": "120.382945,36.064624",
      "distance": "178.645",
      "tel": [],
      "type": "商务住宅;楼宇;商务写字楼"
    },
    {
      "id": "B0FFM5BOG7",
      "direction": "东南",
      "businessarea": "湛山",
      "address": "香港中路18号福泰广场",
      "poiweight": "0.289949",
      "name": "福泰广场C座",
      "location": "120.384476,36.065283",
      "distance": "170.096",
      "tel": [],
      "type": "商务住宅;楼宇;商务写字楼"
    },
    {
      "id": "B0214097S9",
      "direction": "北",
      "businessarea": "湛山",
      "address": "香港中路11号青岛市市级机关办公楼",
      "poiweight": "0.354694",
      "name": "青岛市机关事务管理局",
      "location": "120.382621,36.067131",
      "distance": "105.547",
      "tel": "0532-85913300",
      "type": "政府机构及社会团体;政府机关;地市级政府及事业单位"
    },
    {
      "id": "B021410VK2",
      "direction": "东",
      "businessarea": "湛山",
      "address": "香港中路18号福泰广场B座1602号",
      "poiweight": "0.197761",
      "name": "学大教育(香港路校区)",
      "location": "120.384948,36.065505",
      "distance": "193.59",
      "tel": "0532-58715666;0532-80613621;4006254008",
      "type": "科教文化服务;培训机构;培训机构"
    },
    {
      "id": "B021404UPX",
      "direction": "北",
      "businessarea": "湛山",
      "address": "香港中路17号青岛市市级机关办公楼F1层",
      "poiweight": "0.491639",
      "name": "青岛市人事局",
      "location": "120.382621,36.067131",
      "distance": "105.547",
      "tel": [],
      "type": "政府机构及社会团体;政府机关;地市级政府及事业单位"
    },
    {
      "id": "B021409QGQ",
      "direction": "北",
      "businessarea": "湛山",
      "address": "香港中路11号青岛市市级机关办公楼",
      "poiweight": "0.293956",
      "name": "青岛市经济和信息化委员会",
      "location": "120.382620,36.067130",
      "distance": "105.461",
      "tel": "0532-85911826",
      "type": "政府机构及社会团体;政府机关;地市级政府及事业单位"
    },
    {
      "id": "B0FFK96N1O",
      "direction": "南",
      "businessarea": "湛山",
      "address": "丰合广场(五四广场地铁站C口步行200米)",
      "poiweight": "0.167462",
      "name": "欧风小语种德语培训中心",
      "location": "120.382895,36.064750",
      "distance": "164.797",
      "tel": "0532-68615761",
      "type": "科教文化服务;培训机构;培训机构"
    },
    {
      "id": "B0214103P9",
      "direction": "南",
      "businessarea": "湛山",
      "address": "香港中路12号丰合广场B1层",
      "poiweight": "0.26392",
      "name": "亚美欧国际英语(丰合广场C区东)",
      "location": "120.382945,36.064624",
      "distance": "178.645",
      "tel": "0532-86681112;0532-86685607",
      "type": "科教文化服务;培训机构;培训机构"
    },
    {
      "id": "B021409THZ",
      "direction": "西南",
      "businessarea": "湛山",
      "address": "香港中路10号颐和国际1层(近五四广场)",
      "poiweight": "0.43113",
      "name": "必胜客(颐和国际店)",
      "location": "120.382062,36.064948",
      "distance": "165.167",
      "tel": "0532-85030088;4008123123;4009208809",
      "type": "餐饮服务;快餐厅;必胜客"
    },
    {
      "id": "B0FFLBHC78",
      "direction": "东",
      "businessarea": "湛山",
      "address": "香港中路13号(五四广场地铁站C口步行430米)",
      "poiweight": "0.187004",
      "name": "桂柳人佳螺蛳粉桂林米粉(香港中路店)",
      "location": "120.384683,36.066924",
      "distance": "170.627",
      "tel": "15153265008",
      "type": "餐饮服务;中餐厅;中餐厅"
    },
    {
      "id": "B0FFJH1YJR",
      "direction": "东",
      "businessarea": "湛山",
      "address": "香港中路与南通路交叉口东北100米",
      "poiweight": "0.196805",
      "name": "青岛市人民政府(东南门)",
      "location": "120.383343,36.066228",
      "distance": "31.7359",
      "tel": [],
      "type": "通行设施;临街院门;临街院门"
    },
    {
      "id": "B0FFMD2HA2",
      "direction": "西南",
      "businessarea": "湛山",
      "address": "香港中路颐和国际B座1806",
      "poiweight": "0.257949",
      "name": "青岛星晴海景青年旅舍(五四广场店)",
      "location": "120.382065,36.064823",
      "distance": "177.174",
      "tel": "17866805088;18953207513",
      "type": "住宿服务;住宿服务相关;住宿服务相关"
    },
    {
      "id": "B0I2PDCMVH",
      "direction": "东南",
      "businessarea": "湛山",
      "address": "香港中路18号五四外贸广场F1层",
      "poiweight": "0.284674",
      "name": "麦当劳(五四外贸广场店)",
      "location": "120.384209,36.065338",
      "distance": "147.789",
      "tel": [],
      "type": "餐饮服务;快餐厅;麦当劳"
    }
  ]
}
