{
  "status": "1",
  "regeocode": {
    "roads": [
      { "id": "0571H51F021002619079", "location": "120.156,30.2743", "direction": "西", "name": "古新河(桃花河)绿道", "distance": "43.8509" },
      { "id": "0571H51F0210021461", "location": "120.155,30.2747", "direction": "南", "name": "密渡桥路", "distance": "63.6275" },
      { "id": "0571H51F02100152", "location": "120.154,30.2741", "direction": "东", "name": "莫干山路", "distance": "71.5223" }
    ],
    "roadinters": [
      {
        "second_name": "古新河(桃花河)绿道",
        "first_id": "0571H51F0210022426",
        "second_id": "0571H51F021002619079",
        "location": "120.155070,30.274729",
        "distance": "64.7986",
        "first_name": "古新河绿道",
        "direction": "南"
      }
    ],
    "formatted_address": "浙江省杭州市拱墅区米市巷街道杭州市人民政府浙江省行政中心二号院",
    "addressComponent": {
      "city": "杭州市",
      "province": "浙江省",
      "adcode": "330105",
      "district": "拱墅区",
      "towncode": "330105001000",
      "streetNumber": { "number": "318号", "location": "120.155088,30.274017", "direction": "西南", "distance": "15.9469", "street": "环城北路" },
      "country": "中国",
      "township": "米市巷街道",
      "businessAreas": [
        { "location": "120.137878,30.253167", "name": "西湖", "id": "330106" },
        { "location": "120.091030,30.271791", "name": "西溪", "id": "330106" },
        { "location": "120.142881,30.263047", "name": "北山", "id": "330106" }
      ],
      "building": { "name": "杭州市人民政府", "type": "政府机构及社会团体;政府机关;地市级政府及事业单位" },
      "neighborhood": { "name": [], "type": [] },
      "citycode": "0571"
    },
    "aois": [
      {
        "area": "18181.155252",
        "type": "130102",
        "id": "B0FFMDYI8H",
        "location": "120.155235,30.273762",
        "adcode": "330105",
        "name": "浙江省行政中心二号院",
        "distance": "0"
      },
      {
        "area": "3371717.721199",
        "type": "061000",
        "id": "B0J63Z6OMP",
        "location": "120.166249,30.268231",
        "adcode": "330105",
        "name": "中河片区",
        "distance": "0"
      }
    ],
    "pois": [
      {
        "id": "B0FFMDYI8H",
        "direction": "南",
        "businessarea": "西湖",
        "address": "密渡桥路51-1号",
        "poiweight": "0.139963",
        "name": "浙江省行政中心二号院",
        "location": "120.155235,30.273762",
        "distance": "43.9171",
        "tel": "0571-81051576",
        "type": "政府机构及社会团体;政府机关;省直辖市级政府及事业单位"
      },
      {
        "id": "B023B16BMA",
        "direction": "西北",
        "businessarea": "西湖",
        "address": "莫干山路111号",
        "poiweight": "0.437679",
        "name": "广电大厦(莫干山路)",
        "location": "120.153763,30.274787",
        "distance": "150.856",
        "tel": [],
        "type": "商务住宅;楼宇;商务写字楼"
      },
      {
        "id": "B023B018F8",
        "direction": "西",
        "businessarea": "西湖",
        "address": "莫干山路73号",
        "poiweight": "0.555648",
        "name": "金汇大厦",
        "location": "120.153926,30.273992",
        "distance": "118.843",
        "tel": "0571-88389898",
        "type": "商务住宅;楼宇;商务写字楼"
      },
      {
        "id": "B0FFF4BO4U",
        "direction": "西北",
        "businessarea": "西湖",
        "address": "莫干山路18号(近市政府)",
        "poiweight": "0.153879",
        "name": "蓝天商务中心",
        "location": "120.154592,30.275215",
        "distance": "129.99",
        "tel": [],
        "type": "商务住宅;楼宇;商务写字楼"
      },
      {
        "id": "B023B14AHT",
        "direction": "东",
        "businessarea": "西湖",
        "address": "湖墅南路28号",
        "poiweight": "0.63718",
        "name": "杭州JW万豪酒店",
        "location": "120.156971,30.274795",
        "distance": "189.026",
        "tel": "0571-85788888",
        "type": "住宿服务;宾馆酒店;五星级宾馆"
      },
      {
        "id": "B023B0BGPC",
        "direction": "东",
        "businessarea": "西湖",
        "address": "湖墅南路28号",
        "poiweight": "0.551746",
        "name": "杭州武林万怡酒店",
        "location": "120.157177,30.274330",
        "distance": "195.684",
        "tel": "0571-89817777",
        "type": "住宿服务;宾馆酒店;五星级宾馆"
      },
      {
        "id": "B023B1FOUD",
        "direction": "西南",
        "businessarea": "西湖",
        "address": "天目山路18号(武林门地铁站A1口步行320米)",
        "poiweight": "0.290498",
        "name": "百盛金座",
        "location": "120.154163,30.273230",
        "distance": "139.462",
        "tel": [],
        "type": "商务住宅;楼宇;商务写字楼"
      },
      {
        "id": "B023B00555",
        "direction": "西北",
        "businessarea": "西湖",
        "address": "莫干山路111号",
        "poiweight": "0.510171",
        "name": "浙江广播电视集团",
        "location": "120.153565,30.274931",
        "distance": "175.254",
        "tel": "0571-88077050",
        "type": "科教文化服务;传媒机构;电视台|科教文化服务;传媒机构;电台"
      },
      {
        "id": "B0I01ARDZ2",
        "direction": "西北",
        "businessarea": "西湖",
        "address": "莫干山路24号",
        "poiweight": "0.197463",
        "name": "杭州好漾维莎武林院区",
        "location": "120.154328,30.275440",
        "distance": "163.732",
        "tel": "15381127311",
        "type": "医疗保健服务;专科医院;整形美容"
      },
      {
        "id": "B023B06K8Z",
        "direction": "东南",
        "businessarea": "西湖",
        "address": "湖墅南路1号",
        "poiweight": "0.551589",
        "name": "市民公园",
        "location": "120.156420,30.273597",
        "distance": "136.593",
        "tel": [],
        "type": "风景名胜;公园广场;公园"
      },
      {
        "id": "B0H1PCRJEX",
        "direction": "西北",
        "businessarea": "西湖",
        "address": "蓝天商务中心301",
        "poiweight": "0.178651",
        "name": "Soul Sister舞蹈工作室(武林店)",
        "location": "120.154518,30.275215",
        "distance": "133.072",
        "tel": "15384013331;19818504360",
        "type": "科教文化服务;培训机构;培训机构"
      },
      {
        "id": "B0JGHCMPES",
        "direction": "南",
        "businessarea": "西湖",
        "address": "密渡桥路51-1号",
        "poiweight": "0.206467",
        "name": "浙江住房和城乡建设厅",
        "location": "120.155146,30.273761",
        "distance": "43.2461",
        "tel": [],
        "type": "政府机构及社会团体;政府机关;地市级政府及事业单位"
      },
      {
        "id": "B023B02Q7O",
        "direction": "西南",
        "businessarea": "西湖",
        "address": "天目山路18号百盛金座1层",
        "poiweight": "0.300182",
        "name": "浙江省冶金研究院(天目山路)",
        "location": "120.153816,30.273268",
        "distance": "161.332",
        "tel": "0571-88178122",
        "type": "科教文化服务;科研机构;科研机构"
      },
      {
        "id": "B023B08WAS",
        "direction": "东",
        "businessarea": "西湖",
        "address": "湖墅南路4号",
        "poiweight": "0.128557",
        "name": "联谊楼(湖墅南路)",
        "location": "120.157046,30.273825",
        "distance": "185.645",
        "tel": [],
        "type": "商务住宅;楼宇;商务写字楼"
      },
      {
        "id": "B0FFJ90URI",
        "direction": "北",
        "businessarea": "西湖",
        "address": "湖墅南路17号北京大学城医疗集团北边",
        "poiweight": "0.160743",
        "name": "中国银行(白马大厦支行)",
        "location": "120.155775,30.275677",
        "distance": "180.093",
        "tel": "0571-81951668;0571-81951760",
        "type": "金融保险服务;银行;中国银行"
      },
      {
        "id": "B0FFKB3KAJ",
        "direction": "西北",
        "businessarea": "西湖",
        "address": "混堂巷浙江省广播音乐厅",
        "poiweight": "0.174548",
        "name": "浙江省广电中心",
        "location": "120.153579,30.274954",
        "distance": "175.374",
        "tel": [],
        "type": "科教文化服务;科教文化场所;科教文化场所"
      },
      {
        "id": "B0FFG0ZNQ6",
        "direction": "西北",
        "businessarea": "西湖",
        "address": "莫干山路18号蓝天商务中心F1层",
        "poiweight": "0.320461",
        "name": "中国邮政储蓄银行(拱墅区支行)",
        "location": "120.154254,30.275501",
        "distance": "173.144",
        "tel": "0571-87130091",
        "type": "金融保险服务;银行;中国邮政储蓄银行"
      },
      {
        "id": "B023B0A624",
        "direction": "西北",
        "businessarea": "西湖",
        "address": "莫干山路18号蓝天商务中心F1层",
        "poiweight": "0.281808",
        "name": "中国工商银行(杭州广电支行)",
        "location": "120.154417,30.275339",
        "distance": "149.78",
        "tel": "0571-88050672;0571-88080146",
        "type": "金融保险服务;银行;中国工商银行"
      },
      {
        "id": "B0FFHU7A6T",
        "direction": "西北",
        "businessarea": "西湖",
        "address": "莫干山路111号广电大厦F1层",
        "poiweight": "0.182317",
        "name": "浙江卫视频道",
        "location": "120.153646,30.274829",
        "distance": "162.966",
        "tel": [],
        "type": "科教文化服务;科教文化场所;科教文化场所"
      },
      {
        "id": "B0G2XGKMK6",
        "direction": "西",
        "businessarea": "西湖",
        "address": "莫干山路与混堂巷交叉口西南100米",
        "poiweight": "0.241239",
        "name": "莫干山路79号小区",
        "location": "120.153320,30.273965",
        "distance": "176.944",
        "tel": [],
        "type": "商务住宅;住宅区;住宅小区"
      },
      {
        "id": "B023B08ZYR",
        "direction": "西南",
        "businessarea": "西湖",
        "address": "环城北路318号",
        "poiweight": "0.187062",
        "name": "杭州市法制局",
        "location": "120.155070,30.274084",
        "distance": "10.6335",
        "tel": "0571-85251215",
        "type": "政府机构及社会团体;政府机关;地市级政府及事业单位"
      },
      {
        "id": "B0KULC02CJ",
        "direction": "西南",
        "businessarea": "西湖",
        "address": "天目山路辅路与莫干山路交叉口西北120米",
        "poiweight": "0.242189",
        "name": "天目山路22号小区",
        "location": "120.153359,30.273273",
        "distance": "197.729",
        "tel": [],
        "type": "商务住宅;住宅区;住宅小区"
      },
      {
        "id": "B023B14FKQ",
        "direction": "西北",
        "businessarea": "西湖",
        "address": "莫干山路111号广电大厦F1层",
        "poiweight": "0.502089",
        "name": "浙江电视台影视娱乐频道(莫干山路)",
        "location": "120.153683,30.274821",
        "distance": "159.423",
        "tel": "0571-56353086",
        "type": "科教文化服务;传媒机构;电视台"
      },
      {
        "id": "B023B09M5P",
        "direction": "西",
        "businessarea": "西湖",
        "address": "莫干山路73号市政府正对面",
        "poiweight": "0.432848",
        "name": "浙江省工商行政管理干部培训中心(金汇大厦)",
        "location": "120.153968,30.273954",
        "distance": "115.584",
        "tel": [],
        "type": "科教文化服务;培训机构;培训机构"
      },
      {
        "id": "B023B1991S",
        "direction": "西北",
        "businessarea": "西湖",
        "address": "莫干山路111号浙江广播音乐厅",
        "poiweight": "0.43777",
        "name": "浙江之声",
        "location": "120.153658,30.274880",
        "distance": "164.676",
        "tel": "0571-88077050",
        "type": "科教文化服务;传媒机构;电视台|科教文化服务;传媒机构;电台"
      },
      {
        "id": "B023B16AV2",
        "direction": "西南",
        "businessarea": "西湖",
        "address": "天目山路18号(武林门地铁站A1口步行380米)",
        "poiweight": "0.041901",
        "name": "百盛金座A座",
        "location": "120.154010,30.272961",
        "distance": "171.651",
        "tel": [],
        "type": "商务住宅;楼宇;商务写字楼"
      },
      {
        "id": "B0IGMC7NXF",
        "direction": "西南",
        "businessarea": "西湖",
        "address": "莫干山路11号",
        "poiweight": "0.200571",
        "name": "PICATAPA",
        "location": "120.154189,30.273391",
        "distance": "125.063",
        "tel": "18157167808",
        "type": "餐饮服务;外国餐厅;地中海风格菜品"
      },
      {
        "id": "B023B16AW4",
        "direction": "西北",
        "businessarea": "西湖",
        "address": "莫干山路18号蓝天商务中心F1层",
        "poiweight": "0.280239",
        "name": "杭州市人民政府行政复议办公室",
        "location": "120.154626,30.275160",
        "distance": "123.066",
        "tel": [],
        "type": "政府机构及社会团体;政府机关;地市级政府及事业单位"
      },
      {
        "id": "B0FFHSLE3Y",
        "direction": "东南",
        "businessarea": "西湖",
        "address": "天目山路辅路与湖墅南路交叉口西北40米",
        "poiweight": "0.384951",
        "name": "米市文化公园",
        "location": "120.156746,30.273097",
        "distance": "192.894",
        "tel": [],
        "type": "风景名胜;公园广场;公园"
      },
      {
        "id": "B023B07XH5",
        "direction": "北",
        "businessarea": "西湖",
        "address": "密渡桥路70号美都·恒升名楼",
        "poiweight": "0.313821",
        "name": "杭州市人民政府地方志办公室",
        "location": "120.155578,30.275408",
        "distance": "145.81",
        "tel": [],
        "type": "政府机构及社会团体;政府机关;地市级政府及事业单位"
      }
    ]
  },
  "info": "OK",
  "infocode": "10000"
}
